2018-05-17 10:01:32: {"class":"VERSION","release":"3.16","rev":"3.16","proto_major":3,"proto_minor":11}
2018-05-17 10:01:32: {"class":"DEVICES","devices":[{"class":"DEVICE","path":"/dev/ttyUSB0","driver":"NMEA0183","activated":"2018-05-17T14:01:32.028Z","flags":1,"native":0,"bps":57600,"parity":"N","stopbits":1,"cycle":1.00},{"class":"DEVICE","path":"/dev/ttyUSB1","activated":"2018-05-17T13:59:08.517Z","native":0,"bps":9600,"parity":"N","stopbits":1,"cycle":1.00}]}
2018-05-17 10:01:32: {"class":"WATCH","enable":true,"json":false,"nmea":true,"raw":0,"scaled":false,"timing":false,"split24":false,"pps":false}
2018-05-17 10:01:32: $GPHDT,185.38,T*02
2018-05-17 10:01:33: $GPGGA,140133.00,4221.8535752,N,07101.8901618,W,2,06,0.8,12.205,M,-33.056,M,7.0,0138*48
2018-05-17 10:01:33: $GPVTG,171.90,T,186.54,M,0.05,N,0.10,K,D*22
2018-05-17 10:01:33: $GPZDA,140133.00,17,05,2018,00,00*6A
2018-05-17 10:01:33: $GPHDT,185.39,T*03
2018-05-17 10:01:34: $GPGGA,140134.00,4221.8535756,N,07101.8901588,W,2,07,0.8,12.212,M,-33.056,M,7.0,0138*46
2018-05-17 10:01:34: $GPVTG,135.49,T,150.13,M,0.03,N,0.05,K,D*2C
2018-05-17 10:01:34: $GPZDA,140134.00,17,05,2018,00,00*6D
2018-05-17 10:01:34: $GPHDT,185.39,T*03
2018-05-17 10:01:35: $GPGGA,140135.00,4221.8535763,N,07101.8901567,W,2,07,0.8,12.209,M,-33.056,M,4.0,0138*49
2018-05-17 10:01:35: $GPVTG,90.64,T,105.27,M,0.08,N,0.15,K,D*10
2018-05-17 10:01:35: $GPZDA,140135.00,17,05,2018,00,00*6C
2018-05-17 10:01:35: $GPHDT,185.40,T*0D
2018-05-17 10:01:36: $GPGGA,140136.00,4221.8535773,N,07101.8901555,W,2,07,0.8,12.206,M,-33.056,M,5.0,0138*44
2018-05-17 10:01:36: $GPVTG,320.82,T,335.46,M,0.08,N,0.15,K,D*26
2018-05-17 10:01:36: $GPZDA,140136.00,17,05,2018,00,00*6F
2018-05-17 10:01:36: $GPHDT,185.39,T*03
2018-05-17 10:01:37: $GPGGA,140137.00,4221.8535787,N,07101.8901519,W,2,07,0.8,12.204,M,-33.056,M,6.0,0138*47
2018-05-17 10:01:37: $GPVTG,55.57,T,70.20,M,0.12,N,0.23,K,D*23
2018-05-17 10:01:37: $GPZDA,140137.00,17,05,2018,00,00*6E
2018-05-17 10:01:37: $GPHDT,185.38,T*02
2018-05-17 10:01:38: $GPGGA,140138.00,4221.8535810,N,07101.8901493,W,2,07,0.8,12.199,M,-33.056,M,7.0,0138*4C
2018-05-17 10:01:38: $GPVTG,225.53,T,240.17,M,0.06,N,0.11,K,D*23
2018-05-17 10:01:38: $GPZDA,140138.00,17,05,2018,00,00*61
2018-05-17 10:01:38: $GPHDT,185.39,T*03
2018-05-17 10:01:39: $GPGGA,140139.00,4221.8535832,N,07101.8901483,W,2,07,0.7,12.197,M,-33.056,M,7.0,0138*4D
2018-05-17 10:01:39: $GPVTG,244.82,T,259.45,M,0.08,N,0.15,K,D*2D
2018-05-17 10:01:39: $GPZDA,140139.00,17,05,2018,00,00*60
2018-05-17 10:01:39: $GPHDT,185.37,T*0D
2018-05-17 10:01:40: $GPGGA,140140.00,4221.8535851,N,07101.8901476,W,2,07,0.7,12.198,M,-33.056,M,7.0,0138*43
2018-05-17 10:01:40: $GPVTG,337.22,T,351.86,M,0.07,N,0.13,K,D*2D
2018-05-17 10:01:40: $GPZDA,140140.00,17,05,2018,00,00*6E
2018-05-17 10:01:40: $GPHDT,185.35,T*0F
2018-05-17 10:01:41: $GPGGA,140141.00,4221.8535845,N,07101.8901464,W,2,07,0.8,12.205,M,-33.056,M,4.0,0138*4F
2018-05-17 10:01:41: $GPVTG,318.79,T,333.43,M,0.07,N,0.12,K,D*22
2018-05-17 10:01:41: $GPZDA,140141.00,17,05,2018,00,00*6F
2018-05-17 10:01:41: $GPHDT,185.31,T*0B
2018-05-17 10:01:42: $GPGGA,140142.00,4221.8535833,N,07101.8901472,W,2,07,0.8,12.211,M,-33.056,M,5.0,0138*4E
2018-05-17 10:01:42: $GPVTG,239.14,T,253.78,M,0.04,N,0.08,K,D*2C
2018-05-17 10:01:42: $GPZDA,140142.00,17,05,2018,00,00*6C
2018-05-17 10:01:42: $GPHDT,185.30,T*0A
2018-05-17 10:01:43: $GPGGA,140143.00,4221.8535848,N,07101.8901471,W,2,06,0.8,12.210,M,-33.056,M,6.0,0138*43
2018-05-17 10:01:43: $GPVTG,297.56,T,312.20,M,0.04,N,0.08,K,D*27
2018-05-17 10:01:43: $GPZDA,140143.00,17,05,2018,00,00*6D
2018-05-17 10:01:43: $GPHDT,185.28,T*03
2018-05-17 10:01:44: $GPGGA,140144.00,4221.8535854,N,07101.8901460,W,2,06,0.8,12.214,M,-33.056,M,7.0,0138*4C
2018-05-17 10:01:44: $GPVTG,55.06,T,69.69,M,0.12,N,0.22,K,D*23
2018-05-17 10:01:44: $GPZDA,140144.00,17,05,2018,00,00*6A
2018-05-17 10:01:44: $GPHDT,185.25,T*0E
2018-05-17 10:01:45: $GPGGA,140145.00,4221.8535882,N,07101.8901481,W,2,06,0.8,12.206,M,-33.056,M,7.0,0138*4A
2018-05-17 10:01:45: $GPVTG,111.88,T,126.51,M,0.04,N,0.08,K,D*2A
2018-05-17 10:01:45: $GPZDA,140145.00,17,05,2018,00,00*6B
2018-05-17 10:01:45: $GPHDT,185.23,T*08
2018-05-17 10:01:46: $GPGGA,140146.00,4221.8535893,N,07101.8901505,W,2,06,0.8,12.196,M,-33.056,M,7.0,0138*4E
2018-05-17 10:01:46: $GPVTG,324.99,T,339.63,M,0.07,N,0.12,K,D*2B
2018-05-17 10:01:46: $GPZDA,140146.00,17,05,2018,00,00*68
2018-05-17 10:01:46: $GPHDT,185.19,T*01
2018-05-17 10:01:47: $GPGGA,140147.00,4221.8535890,N,07101.8901533,W,2,06,0.8,12.194,M,-33.056,M,3.0,0138*4F
2018-05-17 10:01:47: $GPVTG,206.96,T,221.60,M,0.04,N,0.07,K,D*29
2018-05-17 10:01:47: $GPZDA,140147.00,17,05,2018,00,00*69
2018-05-17 10:01:47: $GPHDT,185.20,T*0B
2018-05-17 10:01:48: $GPGGA,140148.00,4221.8535876,N,07101.8901548,W,2,06,0.8,12.203,M,-33.056,M,4.0,0138*4E
2018-05-17 10:01:48: $GPVTG,180.79,T,195.43,M,0.02,N,0.04,K,D*2D
2018-05-17 10:01:48: $GPZDA,140148.00,17,05,2018,00,00*66
2018-05-17 10:01:48: $GPHDT,185.20,T*0B
2018-05-17 10:01:49: $GPGGA,140149.00,4221.8535868,N,07101.8901554,W,2,06,0.8,12.206,M,-33.056,M,5.0,0138*49
2018-05-17 10:01:49: $GPVTG,178.90,T,193.54,M,0.06,N,0.11,K,D*2D
2018-05-17 10:01:49: $GPZDA,140149.00,17,05,2018,00,00*67
2018-05-17 10:01:49: $GPHDT,185.17,T*0F
2018-05-17 10:01:50: $GPGGA,140150.00,4221.8535855,N,07101.8901566,W,2,06,0.8,12.207,M,-33.056,M,6.0,0138*4C
2018-05-17 10:01:50: $GPVTG,6.49,T,21.13,M,0.09,N,0.17,K,D*13
2018-05-17 10:01:50: $GPZDA,140150.00,17,05,2018,00,00*6F
2018-05-17 10:01:50: $GPHDT,185.15,T*0D
2018-05-17 10:01:51: $GPGGA,140151.00,4221.8535859,N,07101.8901601,W,2,07,0.8,12.206,M,-33.056,M,7.0,0138*42
2018-05-17 10:01:51: $GPVTG,328.39,T,343.03,M,0.08,N,0.14,K,D*2F
2018-05-17 10:01:51: $GPZDA,140151.00,17,05,2018,00,00*6E
2018-05-17 10:01:51: $GPHDT,185.13,T*0B
